restaurant_id,restaurant_name,address,lat,long,rating,price,category,review_count
FvCslLyo0SlDKI52bEDekQ,Nish Nush,41 John St,40.709472,-74.007949,4.5,$$,Vegetarian,294
hAmf5Tfs0OhllZHAmO-12g,Tartinery Hudson Eats,225 Liberty St,40.712338,-74.01588,4.0,$$,French,368
7NqFIuXuRwm6WuuseLxAVw,Delmonico's,56 Beaver St,40.70507,-74.01019,4.0,$$$$,Steakhouses,1060
LpVbI-E9C-CSp7WhU5h2Iw,Fishmarket Restaurant,111 South St,40.70717,-74.00192,4.5,$$,Seafood,547
Vs-3byrsBYwd_Cnfl0CyFw,Bubby's Tribeca,120 Hudson St,40.7198118,-74.0083092,3.5,$$,American (Traditional),1377
iXSuNKKUBIrBX7zUerlQDQ,Benares,45 Murray St,40.71415,-74.009209,4.0,$$,Indian,507
hvrQQ0YWqgw0__OnofqXag,Kuu Ramen,20 John St,40.7096786,-74.0089569,4.0,$$,Ramen,652
WYhRkUATHRyXZrE55MArbA,Scalini Fedeli,165 Duane St,40.7173964385114,-74.0093277537459,4.5,$$$$,Italian,311
_z2_1TE_1brlvljiGtJ4mA,Aahar Indian Cuisine,10 Murray St,40.71334,-74.0081,4.5,$$,Indian,315
MHtbBc2np3sR7jiV9GphNg,Tribeca's Kitchen,200 Church St,40.7162705535921,-74.0072225927912,4.0,$$,American (New),504
pNYcGGAj4AYaExlmrEmfUw,Harry's,1 Hanover Sq,40.704512,-74.009834,4.0,$$$,Steakhouses,688
ooYUO3Pq_qypc1NXFzeLYQ,City Vineyard,233 West St,40.7205582,-74.0118093,4.0,$$,Wine Bars,833
ohLIPmzTysowInbte9XhMw,The Malt House,9 Maiden Ln,40.709659,-74.009262,4.0,$$,Gastropubs,518
wP0s8Jv2eFRMfjFj7isYUw,Mulberry & Vine,73 Warren St,40.7150751,-74.0101342,4.0,$$,American (New),316
rZIMlQ76I0mXL8uNii_wVg,Atera,77 Worth St,40.71694,-74.0057,4.5,$$$$,American (New),259
ZnhRUBos9FGQZrzbcPn6Vg,O'Hara's Restaurant and Pub,120 Cedar St,40.7093473589949,-74.0122557367896,4.0,$$,Irish Pub,463
0laCKZiHrdM_ZKdhTFbGgg,Sauce & Barrel,97 Washington St,40.707999,-74.0142651,4.0,$$,Bars,410
bJdS98j_HTfyg-xUlu6V5A,Dark Horse,17 Murray St,40.713718,-74.008036,4.0,$$,American (Traditional),395
Uv13OfDr0fm5Jk2Dk4uFvQ,Hank's Juicy Beef,84 Chambers St,40.7143487,-74.0072147,4.5,$$,American (New),249
N-M-c8yQFqGW1jn_tdCzPg,Sam's Falafel Stand,Cedar St And Broadway,40.7090396819627,-74.0113380915443,4.5,$,Falafel,194
P2CTp4xyaNCe2AXSiLeOSQ,The Odeon,145 W Broadway,40.71692,-74.00792,4.0,$$$,American (New),640
nm5rcWNmfevNXLNQAITi5w,Clinton Hall,90 Washington St,40.70803,-74.014869,3.5,$$,Bars,646
V75gQDPzAwaqLmjSn-t9DQ,Eggloo,60 Mulberry St,40.7155497342652,-73.9993924610537,4.0,$,Desserts,896
IUvJ8jmojYu1FsOQ0PfFcg,Aquagrill,210 Spring St,40.7253545576709,-74.0037010931698,4.0,$$$,Seafood,1361
6gDUVNZo0E9lxO2DkAhHOQ,The Greek,458 Greenwich St,40.7237145,-74.0096166,4.5,$$$,Greek,481
d-DQwNxs77Pah2ys0q7w1Q,American Cut Steakhouse Tribeca,363 Greenwich St,40.71915,-74.00994,4.0,$$$$,Steakhouses,583
RW-v9cm9rQZS9cSihuXfvw,Brandy Library,25 N Moore St,40.720073,-74.007227,4.0,$$$,American (New),602
uoT2_Wrt1noD6kZOID7tUg,Jane,100 W Houston St,40.72732,-74.00026,4.0,$$,Breakfast & Brunch,3149
8uuMkezIN1c8zGEWkaMRqg,Los Tacos No. 1,136 Church St,40.714282,-74.008675,4.5,$,Tacos,143
MeUq9lombxM9alxs64tejQ,Pepolino Restaurant,281 W Broadway,40.720756,-74.004885,4.0,$$$,Tuscan,548
alFl7eiu6Go-YxZAdp88Fw,Go! Go! Curry!,12 John St,40.7098966,-74.0090997,4.0,$$,Japanese Curry,364
kVrTff8uDMSBAaceBwQ7dg,Saluggi's,325 Church St,40.720104,-74.003578,4.0,$$,Pizza,558
L-IuiVoFMDSw2K6OAciP1g,Mamoun's Falafel,119 MacDougal St,40.7302874,-74.0004383,4.0,$,Middle Eastern,2383
t4B9GkAuiYIjFCt9SlK3EQ,Poke Bowl,104 Fulton St,40.709569,-74.0068345,4.0,$$,Poke,306
_0WFGjXuenlBixOlbSlGeQ,Crown Shy,70 Pine St,40.7063449,-74.0076944,4.5,$$$$,American (New),269
3uJ-wOpTZHd4dsIjMbmYgQ,Thalassa Restaurant,179 Franklin St,40.7193085,-74.0095971,4.0,$$$,Seafood,408
bdKc4CSJPv-XLgxVwrtPrg,Forlini's Restaurant,93 Baxter St,40.71695,-73.99957,4.5,$$$,Italian,446
7Qvh0oFRsoqrO9qNlcMKXQ,Saigon Shack,114 Macdougal St,40.72969,-74.000629,4.0,$,Sandwiches,2382
qzdCvtgpCDjNVV_zRJB5EQ,Voyager Espresso,110 William St,40.708872,-74.006695,4.5,$,Coffee & Tea,131
U74_3F7r3tMhd6dmTmDBxQ,Macao trading,311 Church St,40.719623,-74.003904,4.0,$$$,Asian Fusion,751
uc5qQMzs96rzjK27epDCug,Joe's Pizza,7 Carmine St,40.730554,-74.002136,4.0,$,Pizza,2536
obFs12x7mgYPGxgalBd22w,Le Coucou,138 Lafayette St,40.71909,-74.00013,4.0,$$$$,French,563
yoPMDATGXh_8NR7I0SW1gw,Manhattan Proper,6 Murray St,40.713341940631,-74.0080507346,4.0,$$,Sports Bars,338
0GN6l4FAknTFSWZhEan45A,GunBae,67 Murray St,40.714683,-74.010223,4.0,$$,Korean,283
7qYeyW9_dxnbaBCFUXGk_A,Stage Door Pizza,26 Vesey St,40.7120047333763,-74.0096561511938,4.0,$,Pizza,245
q2VwOuFDRJyIUfUFy8HQzg,Suspenders Restaurant & Bar,108 Greenwich St,40.70857,-74.01347,4.0,$$,Gastropubs,257
VaL9GaBR_GR-q9d1VzJF3g,Suteishi,24 Peck Slip,40.70788,-74.00194,4.0,$$$,Japanese,490
j8DFd-bxnvM_UfHnDLIA0g,Woodrow's,43 Murray St,40.7141113,-74.009201,4.0,$$,American (Traditional),330
c1kKAH9XMPNeaBhvnIP0FQ,Trinity Place,115 Broadway,40.708865,-74.01117,4.0,$$,Bars,379
0k678lCWQyReNi0lARlOmw,China Blue,135 Watts St,40.724038,-74.009958,4.0,$$,Shanghainese,707
jjLcqGI11ThxAhcftEh1Aw,Fraunces Tavern,54 Pearl St,40.70344,-74.01135,3.5,$$,American (Traditional),873
A0saPXtRGKl-SVJGQyQAOw,Brooklyn Chop House,150 Nassau St,40.7115099,-74.00597,4.0,$$$,Dim Sum,424
0Q3xCYWK2N-wJfXjLa9dFg,Bâtard,239 West Broadway,40.7195533039813,-74.0057982895201,4.0,$$$$,Modern European,405
rvoyaPumkhL5FA2zTqk13w,Sandwich House,17 Ann St,40.71096,-74.0077699,4.0,$,Sandwiches,266
yFub1BhKEP-W-_ZM3_nJoQ,Bodhi Kosher Vegetarian Restaurant,77 Mulberry St,40.71641,-73.99931,4.0,$$,Vegan,373
xyBTcpnkIxV2h0AKU0pP0Q,Thái Son,89 Baxter St,40.71677,-73.9995,3.5,$$,Vietnamese,854
Hv5v8y3fvu6PjPiFf4jPVQ,Trading Post,170 John St,40.7059604,-74.0041871,4.0,$$,American (Traditional),425
vec8jeVbbSGzVlStl0Xp_Q,Chikarashi,227 Canal St,40.71787,-73.99948,4.0,$$,Japanese,486
hFZ5qw8gvWiBUbmbahSalg,Wolfgang's Steakhouse,409 Greenwich St,40.7211087,-74.0098128,4.0,$$$$,Steakhouses,550
ED2I3t5rOf81cddCsLA4tw,Terroir Tribeca,24 Harrison St,40.718804998517,-74.0099987815497,4.0,$$,Wine Bars,284
PYcL2z9gHj6-ZTlViT9Nqw,Minetta Tavern,113 Macdougal St,40.7300047976758,-74.0006073834151,4.0,$$$,French,2190
SKoMUaQewpMdj1Mg8QvBNw,Nobu Downtown,195 Broadway,40.711203,-74.008879,3.5,$$$$,Japanese,392
sLxHi6kOAEV6iqr45jzb_Q,B Flat,277 Church St,40.7185644131449,-74.0048434404755,4.0,$$,Lounges,363
zGAQqDu0Ak2khVYs9WdQxw,Sushi Nakazawa,23 Commerce St,40.7317465228689,-74.0045493828034,4.5,$$$$,Japanese,1388
QvQilClGyuKFz08TBsoJNA,Le District,225 Liberty St,40.7126473617984,-74.0157784596443,3.5,$$,French,545
LF1QAuvpfX7KGQlg2zMg6Q,John's of Bleecker Street,278 Bleecker St,40.73158,-74.00332,4.0,$$,Pizza,2014
DTKKEogIt2wQm4UULYVGug,Mad Dog & Beans Mexican Cantina,83 Pearl St,40.704168,-74.010261,3.5,$$,Mexican,936
suEoAFFWEj-RA3smDVqDbA,Morton's The Steakhouse,136 Washington St,40.7097005194611,-74.0139538049698,4.0,$$$,Steakhouses,245
ki9q3O-qk1YE-e2Uw1b5tA,Nha Trang One,87 Baxter St,40.71671,-73.9995299,3.5,$$,Vietnamese,744
XkL6fOBtaIqVCMXVCY9row,H K Wonton Garden,79 Mulberry St,40.7164688110352,-73.9992752075195,3.5,$,Cantonese,739
k8GFfCXO2FIIJIo0ICYSRA,Bao Bao Cafe,106 Greenwich St,40.70854,-74.01367,4.0,$,Noodles,189
3hRE9hN7Yp9AHJD8ahAVDQ,MarkJoseph Steakhouse,261 Water St,40.70837,-74.00152,4.0,$$$$,Steakhouses,407
vQXtCgUabVsw5L1TJtnslw,Sarabeth's Tribeca,339 Greenwich St,40.7183455,-74.0102912,3.5,$$,Breakfast & Brunch,700
yZJbealagfujEkgesAl2hA,Lupa,170 Thompson St,40.7276,-74.000045,4.0,$$$,Italian,1529
AIKjw2QLvVNdha3TciJYzg,Boqueria Soho,171 Spring St,40.724912,-74.0021299,4.0,$$,Spanish,1005
6-ShONYFIM9K8HAUOhZVlw,Da Mikele by Luzzo's,275 Church St,40.718477,-74.004802,4.0,$$,Italian,344
aZ0S4F4RG3b4sYkkZbzwkw,PROOF Coffee Roasters,65 Nassau St,40.709487,-74.008651,4.5,$,Coffee & Tea,107
O6LArju5DvLrGNrvErieVA,Bluestone Lane,30 Broad St,40.7063436944471,-74.0118295429916,4.0,$,Coffee & Tea,251
L5eqJRy8Yx_4El6rUxWmBw,El Vez Burrito Bar,259 Vesey St,40.7147356376792,-74.015635,4.0,$$,Mexican,133
twHJyFgUSd7wzioKQjE7Jw,Galli,45 Mercer St,40.72161,-74.00127,4.0,$$,Italian,930
s-Fg5eHqv4VCAn2ANkHiZA,Leo's Bagels,3 Hanover Sq,40.7048928861349,-74.0097218048184,3.5,$,Coffee & Tea,867
kDJbzzmCEjFbyDQ-lSygvw,Fresh Salt,146 Beekman St,40.70707,-74.00244,4.0,$$,Bars,394
ZgyvDF_hOWas3SXe0Hj7hA,Schilling,109 Washington St,40.70857,-74.014,4.0,$$,Austrian,154
J0OeDwmh5JBhid0A5GvltA,Il Corallo Trattoria,176 Prince St,40.7262073,-74.0018919,4.0,$$,Italian,945
50fWXrNECQQYght4ZWeBXQ,Taureau,558 Broome St,40.724511,-74.005701,4.5,$$$,Fondue,574
4zBGXDXg9DzK0IROwCUeFg,Cowgirl Seahorse,259 Front St,40.7081358,-74.0004532,4.0,$$,Tex-Mex,584
qByYLfBKtNUIAui0eu-fNQ,Mermaid Oyster Bar,79 MacDougal St,40.7287899,-74.00165,4.0,$$,Seafood,1086
fvYQeoC42TkIyPTSVEQWvw,Bill's Bar & Burger Downtown,85 West St,40.709363010959,-74.0141804516316,3.5,$$,Bars,560
XBWO26QblInZGftnSDD94A,Maman Tribeca,211 W Broadway,40.7188969,-74.0062207,4.0,$$,Bakeries,258
jJqZrvbMK6CAft44m7UPFA,Aroma Espresso Bar,100 Church St,40.7130021842013,-74.0099036917633,3.5,$$,Coffee & Tea,344
pasWmob-dg6RkqETkO7RWA,Mighty Quinn's Barbeque,225 Liberty St,40.712545,-74.0156618,3.5,$$,Barbeque,270
DF7PV0DE9z0LM4ae6XYeYg,Harry's Italian,2 Gold St,40.707555318913,-74.006898168681,3.5,$$,Pizza,581
vtKxYnrZld4w6wG82Vm4pg,Tribeca Grill,375 Greenwich St,40.71961,-74.00991,3.5,$$$,American (New),608
wWhZvkaFrntlSf1CWvD1Zw,Cafe Patoro,223 Front St,40.7072720974983,-74.0023160353303,4.5,$,Bakeries,171
PQd4M3cuSgdweWgLgZIslQ,Inatteso Pizzabar,28 West St,40.7056571,-74.0172056,4.0,$$,Italian,314
qBGKigOGn_flCx1apxPzlA,Piccola Cucina Osteria,196 Spring St,40.72506,-74.00322,4.5,$$,Italian,556
uBGjcW-GuYy_qSvMykuISA,Pommes Frites,128 Macdougal St,40.730022,-74.000152,4.5,$,Belgian,903
CYf9FmRmjYa2MAnAv1Z4Cw,Blue Spoon Coffee,90 William St,40.708068,-74.007469,4.0,$,Cafes,188
FyFeyjndrXHDnN-z9-qv_w,Augustine,5 Beekman St,40.71141,-74.006814,4.0,$$$,French,246
d7Asc4q2ImoPlA_BhfroTQ,Kesté Pizza & Vino,271 Bleecker St,40.73154,-74.00293,4.0,$$,Pizza,1403
D2qV8sDdHEFlHbVz7VSHRQ,Black Tap - Soho,529 Broome St,40.723807,-74.004351,3.5,$$,American (Traditional),1181
gjZpcE-X4zQOEqWQPelLgg,Max,134 W Broadway,40.71688,-74.00835,3.5,$$,Italian,445
lBO2fKhSnvqKDj_C8Uh9aQ,GRK Fresh Greek - Financial District,111 Fulton St,40.709995,-74.006883484631,3.5,$$,Greek,480
F-QQCnbsw48dfx4qVf-WoQ,Monk Mcginn's,57 Murray St,40.71432,-74.00972,4.5,$$,American (New),83
rJ4N10Nbh-GM49qOSGFoAw,Old Xi'an,164 Pearl St,40.70591,-74.00747,4.5,$$,Chinese,198
9HkUue6kUfTIQUlLynWLMQ,Bosie,506 Laguardia Pl,40.7277403,-73.9995539,4.0,$$,Coffee & Tea,938
6qzNc9Z9DHYYleKqrW_K3g,Takashi,456 Hudson St,40.7313524,-74.0065048,4.0,$$$,Japanese,978
qEe7nIhPfEL6L0-VYhWRrA,Raku,48 Macdougal St,40.72728,-74.00252,4.5,$$,Japanese,382
B1XdGwZZ5ee2fBdngj7NUw,Underground Pizza,3 Hanover Sq,40.70499,-74.00961,4.0,$,Pizza,289
15k7iqFbhf4h8L01yggLqg,Song E Napule,146 W Houston St,40.72813,-74.00188,4.5,$$,Pizza,469
B2S5HWRfxe9G-BhKJix9Yg,Pegu Club,77 W Houston St,40.726579,-73.999861,4.0,$$$,Lounges,992
cn3JXMq29UfRkFCUD0Bhbw,Fried Dumpling,106 Mosco St,40.7145984,-73.9993465,3.5,$,Chinese,518
ADHX7nBixDPVlq3OXhny0g,Faicco's Italian Specialties,260 Bleecker St,40.73113,-74.00306,4.5,$$,Meat Shops,517
fa5a7jksUak7yleWLWMigg,Joe’s Steam Rice Roll,261 Canal St,40.7190194496717,-74.0008207038045,4.0,$,Hong Kong Style Cafe,272
SXWnyFNLCehVlJPRxk7gAg,Anejo Tribeca,301 Church St,40.7193829,-74.004417,4.0,$$,Mexican,382
92vOHinyRpz2GI_clH8-uQ,Sticky's Finger Joint,21 Maiden Ln,40.7093087362013,-74.0090160288361,4.0,$$,Chicken Shop,162
kgXNbPJcumyJ8LS83Hez8g,Sophie's Cuban Cuisine,73 New St,40.7056891,-74.0124735,3.5,$$,Cuban,419
0WDHtP31HeVY0LP8INiFzQ,Rice Noodle Cart,153 Centre St,40.717931,-74.000283,4.5,$,Cantonese,150
Mr_ROnIINTdHLWrCcb2z4g,The Palm Tribeca,206 West St,40.716536312364,-74.012791062411,3.5,$$$,Steakhouses,291
PgTgzq8oKcP2r00YUWL03A,Sole di Capri,165 Church St,40.71511,-74.00758,4.0,$$,Italian,248
84zvcPTAVCsSVtzCUtSDtA,Cha Chan Tang 茶餐廳,45 Mott St,40.7153,-73.99896,3.0,$,Chinese,1030
WHQpLvxkCK_BMtF8pIShnQ,Carroll Place,157 Bleecker St,40.7287,-73.99971,4.0,$$,Italian,1077
sySAZxvH4LvSGJRLmCP19A,Aux Epices,121 Baxter St,40.7181073647053,-73.9991025383579,4.0,$$,French,318
D9nQb14gqhCAOaUUvJz3-Q,Reserve Cut,40 Broad St,40.7059085,-74.011808,4.0,$$$$,Steakhouses,270
b42PcC1nCP602fiXF0a9Xg,Barbalu Restaurant,225-227 Front St,40.7074747,-74.0020404,4.0,$$,Italian,285
s_YuHngBngWwzpcKNIM71A,Pi Bakerie,512 Broome St,40.72361,-74.00329,4.5,$$,Bakeries,267
4h4Tuuc56YPO6lWfZ1bdSQ,Joe's Pizza,124 Fulton St,40.7101297729083,-74.0077206864953,4.0,$,Pizza,191
Fuk7jDI2XAcvHxqau5rKWA,Acqua Restaurant NYC,"21 Peck Slip, Water St",40.7082567,-74.001797,4.0,$$,Seafood,369
ZlwjT-jygnYqM5qDE0CuLQ,Gigino Trattoria,323 Greenwich St,40.71726,-74.01055,3.5,$$,Italian,256
3cC6UcOj_-FMXRBYlsXFzA,Two Hands,251 Church St,40.71782,-74.00547,3.5,$$,Breakfast & Brunch,323
wJ-MPdFSPUoChucj-r6YxA,Dig,225 Liberty St,40.7127509843895,-74.0155569472908,3.5,$$,American (New),175
xeC9vn3dxVVzAMR_aFwfXg,IL Brigante,214 Front St,40.707492,-74.002571,3.5,$$,Italian,399
9AUVb5HNQl2117Nkl7sP-Q,Takahachi Tribeca Restaurant,145 Duane St,40.71659,-74.007919,3.5,$$$,Sushi Bars,229
x_oV9aGzq-lNmgPXU_tvbw,Zucker's Bagels & Smoked Fish,146 Chambers St,40.715576,-74.009849,3.0,$,Delis,655
JcyY0ArcjZhxzLlrBuQuPg,Maestro Pasta,45 John St,40.709329,-74.007891,4.5,$$,Pasta Shops,68
J4qehrNgX-8fi9-TTiVuBA,Roti Modern Mediterranean,100 Maiden Ln,40.706518,-74.007133,4.0,$$,Mediterranean,261
nrwOQSXoRXfAYhkdjiUk8g,Toro Loco,15 Stone St,40.70421,-74.01208,4.0,$$,Cocktail Bars,235
RLJ5BUm89VySJWHHvmSzEQ,Fish,280 Bleecker St,40.731734,-74.003463,4.0,$$,Seafood,1439
C-V8rvmamxMzu7EoQkcFrg,Kesté,77 Fulton St,40.709132,-74.004676,4.0,$$,Pizza,181
4x4M_p_b8GvLkc4fe00GHA,Biryani House Cart,140 Broadway,40.70865,-74.01011,4.0,$,Indian,160
o2QR6wrQgTsWAMrd1sTjOA,Dig,80 Broad St,40.7042826,-74.011963,4.0,$$,American (New),250
P_UREWCQxEYVbBa-KW_Wew,EN Japanese Brasserie,435 Hudson St,40.7306,-74.00698,4.0,$$$,Japanese,1246
anayUOcPkiAvijszwOf_Rw,Spring Cafe,153D Centre St,40.71792,-74.00021,4.5,$,Vegan,95
EqZEbtu-91BdCPd4chXPVw,Magic Mix Juicery,102 Fulton St,40.70961,-74.006735,4.0,$$,Juice Bars & Smoothies,187
hh0ae47ojPqq3USCRLmAjg,Tomoe Sushi,172 Thompson St,40.7277,-74.0001599,4.0,$$$,Sushi Bars,947
B-MDhRKRTmTqj4Vp_p8AGw,P.J. Clarke's,250 Vesey St,40.7136996616618,-74.0162283182144,3.0,$$,American (Traditional),549
ttE1oTYNRzK51h8FyIX36g,Underdog,55 Stone St,40.7044362276793,-74.0102791786194,3.5,$$,Burgers,328
xzN2k19JXDYjOWAhNw62aw,Adoro Lei,287 Hudson St,40.725612,-74.007916,4.5,$$,Italian,291
dvkQIG20RjgNi-SwRr_1CQ,MAMO Restaurant,323 W Broadway,40.72186,-74.00382,4.0,$$$,Italian,253
ZoVVcwwbCxIhEmstLWrRvw,The Hummus & Pita,79 Chambers St,40.71474,-74.00671,4.0,$,Mediterranean,195
DC58K8Z_piVm7iAK0ZI_tQ,Bobby Van's Steakhouse,25 Broad St,40.70606,-74.01114,3.5,$$$,Steakhouses,394
pepM7-yv4-jCT6S1nl6fPg,Asian Spicy Curry Pop-up,46 Mulberry St,40.715031,-73.99931,4.5,$,Asian Fusion,141
7_hGsGEkHrjgAiYVjrCFnw,Carbone,181 Thompson St,40.728,-74.0001497,4.0,$$$$,Italian,1012
mn6JM5lHuSSsG9KSXck3ww,Ulysses Folk House,95 Pearl St,40.7042799890041,-74.0099190920591,3.0,$$,Pubs,754
ZT4QlKmfN7SO4gbha2BUlg,Humble Fish,35 Lispenard St,40.71996,-74.00354,4.0,$$,Poke,172
0BzxIsoRuFvxbMPl-iH70A,Market Table,54 Carmine St,40.7297659255873,-74.0037665277862,4.0,$$$,American (New),789
7zxV9U7_SJ1npeLCkHUzjg,Yankee Doodle Dandy's,,40.71424,-74.00642,4.0,$,Food Trucks,118
HD0e3eHwv573qHZOJJitWg,Aurora Soho,510 Broome St,40.723543,-74.003199,4.0,$$$,Italian,462
yA29ur97O7B6kYr1g5IoAw,Aroy Dee Thai Kitchen,20 John St,40.7096786,-74.0089569,3.5,$$,Thai,395
Cd11Q5nxqthvg5xQx2SW2g,Tasty Dumpling,42 Mulberry St,40.7149408310765,-73.9995409548283,3.5,$,Chinese,500
L0g4PLqpgWz0OkpGFbUTZA,Mudville Tribeca,126 Chambers St,40.71524,-74.00889,3.5,$$,American (Traditional),392
wrvIZaT5rTmk0YpIvQbvHw,Murray's Cheese Bar,264 Bleecker St,40.7312,-74.00322,4.0,$$,American (New),781
HGNqWrRYJNyhJSS8yia8HQ,Ruchi,120 Cedar St,40.709532,-74.012702,3.5,$$,Indian,361
AR_0QV4O12sHojkky_IMkg,Canal Street Market,265 Canal St,40.71897,-74.00102,4.0,$$,Food Court,191
6dSiCqC9x51PZRMOvdQTpA,Pearl Oyster Bar,18 Cornelia St,40.7314099,-74.00197,4.0,$$$,Seafood,825
tFQRwk9SVOFgpMBZ55UrLw,Umami Burger - Brookfield Place,225 Liberty St,40.713225,-74.015913,3.0,$$,American (New),307
jsjJxd8NzEnl19VM94bbGw,Blue Spoon Coffee,76 Chambers St,40.7143174856901,-74.0067286044359,4.0,$,Coffee & Tea,185
z_yu_Qo1xTLeYPBqBM5igA,Menya Jiro- Fidi,123 William St,40.70933,-74.00714,4.0,$$,Ramen,150
oV424-PaBMTE99BqGLotYQ,Walker's,16 N Moore St,40.71972,-74.00707,4.0,$$,Diners,292
rlZP-SWgNXH-2Ejp9dHEgw,Jeremy's Ale House- South Street Seaport,228 Front St,40.70766,-74.00205,4.0,$,Dive Bars,284
VSPkVw9gSQx-5v4A6aC_YA,Manousheh,193 Bleecker St,40.7293499,-74.00134,4.5,$,Lebanese,428
T_d-JdVD-DVl4DzWqQk9DQ,View of the World Terrace Club,140 Washington St,40.709845,-74.013894,3.5,$$,American (New),166
R3fMQtSL0MrMUyW_Q32oNw,NAYA,One New York Plz,40.7021301747589,-74.0118362768599,4.5,$,Lebanese,147
WFyGR8sW10AzbAoQ4T7Ung,The Paris Cafe,119 South St,40.70732,-74.00159,4.0,$$,Seafood,319
kpR9je2H9MjKz6zpesyV6g,Thailicious,75 Baxter St,40.7162609,-73.9999063,4.0,$$,Thai,291
I_YPy_YRtZFyWOSWs-gv4A,Luckyim Thai,,40.7065887451172,-74.0096130371094,4.0,$,Food Trucks,163
fanlKZzN-fI9LywqQD6EHg,Broadstone Bar & Kitchen,88 Broad St,40.70411,-74.01186,4.0,$$,American (New),247
NgPXeIWQicIXxjxSlGXvjA,Black Burger,386 Canal St,40.72138,-74.00497,4.0,$$,Burgers,329
fkKcK6BFZehJZTP2roO5JA,Pier A Harbor House,22 Battery Pl,40.704364,-74.018051,3.0,$$,Bars,640
0oRYwB_SLqjHptvUQwwe2w,Tajin,85 Greenwich St,40.70772,-74.01356,3.5,$$,Mexican,233
8Y5Ytn30Wup9sNf2n99s1A,NOMO Kitchen,9 Crosby St,40.7198301,-74.0000708,3.5,$$,American (New),534
Ai9zcAveCf-eRPup4HIXhw,Shorty's,62 Pearl St,40.7034454,-74.0110779,4.0,$$,Sandwiches,274
u0bYCPlbJ85_lDjnZQ_e3w,Kaigo Coffee Room,120C Lafayette St,40.7187029822397,-74.0004725370878,4.5,$$,Coffee & Tea,153
Rj2ACaJcbroJLPDhRhzvBw,Shuka,38 MacDougal St,40.72707,-74.00283,4.0,$$,Mediterranean,459
XSvT4-d8mDeXBJDoG7pZHw,d Elici,71 Nassau St,40.7097126477894,-74.0083819832646,4.0,$,Salad,109
C7e6WIM4CFa4EkzxHWHBRA,PhoBar,43 Mott St,40.7152346,-73.9990079,4.0,$$,Vietnamese,233
uQ4HZzNarBBNcTKZSIY-vA,Black Fox Coffee,70 Pine St,40.7063449,-74.0076944,4.0,$$,Cafes,192
_94vfFroevCsC4plhWnvjw,Num Pang Kitchen,225 Liberty St,40.712455,-74.015304,3.5,$$,Sandwiches,185
Q2dKbHvXwmJuoaf1Yahfxw,Miramar,21 S End Ave,40.70814,-74.01779,4.0,$$,Seafood,187
7-Rr97T-mcgVvL1yTTCAXg,Jack's Stir Brew Coffee,222 Front St,40.707633,-74.002356,4.0,$,Coffee & Tea,195
ECemz7ixbRYZkkDxThcQWg,Vietspot,99 Nassau St,40.7105473460815,-74.0075637236421,3.5,$$,Vietnamese,300
4b43TOXpskBPZqQzbKkwDQ,Le Botaniste,127 Grand St,40.7204278,-74.0002028,4.5,$$,Vegetarian,136
HrdIdeDZBTUdyEdSTPG1zg,Jack's Wife Freda,50 Carmine St,40.729826,-74.003516,4.0,$$,Mediterranean,847
Dq_KwjD7WpGmgrXiu0qEOg,Made Fresh Daily,226 Front St,40.70769,-74.00221,4.0,$$,Coffee & Tea,194
1MqGlFP3b7H77fzUkJMKgw,Mooncake Foods,112 6th Ave,40.7237776,-74.004562,4.0,$$,Vietnamese,515
qCrM1gDsY7bc3Tk61VBIBQ,Savida,139 Duane St,40.71645,-74.00783,4.5,$$$$,Mediterranean,74
RJ7WP7PaYz_-4X2XgXl5uA,Potbelly Sandwich Shop,101 Maiden Ln,40.7070133727982,-74.0069238742571,4.0,$,Sandwiches,200
BA6wd1pZTVu1DmrtiyTs8g,Raoul's Restaurant,180 Prince St,40.72615,-74.00216,4.0,$$$,French,491
tKpTRuNe7JJD6IYFPVCXNg,Mariachi's,156 Chambers St,40.715751,-74.010219,3.5,$$,Mexican,244
HsqaGB90PYkI0En3rrtupQ,Kaede Japanese Restaurant,90 Chambers St,40.714458,-74.007439,3.5,$$,Japanese,185
